$GPRMC,204831.00,A,4030.45988,N,07612.93881,W,0.198,,251219,,,A*64
$GPVTG,,T,,M,0.198,N,0.367,K,A*21
$GPGGA,204831.00,4030.45988,N,07612.93881,W,1,09,0.99,233.1,M,-34.4,M,,*60
$GPGSA,A,3,26,16,31,14,03,22,23,29,32,,,,1.85,0.99,1.56*00
$GPGSV,4,1,13,03,38,268,19,04,35,311,19,09,04,312,10,14,45,128,27*7D
$GPGSV,4,2,13,16,55,202,19,22,33,241,21,23,29,310,21,25,00,043,*7D
$GPGSV,4,3,13,26,83,150,30,27,03,172,,29,21,056,26,31,52,058,31*73
$GPGSV,4,4,13,32,16,133,21*4F
$GPGLL,4030.45988,N,07612.93881,W,204831.00,A,A*71
$GPRMC,204832.00,A,4030.45984,N,07612.93886,W,0.095,,251219,,,A*60
$GPVTG,,T,,M,0.095,N,0.176,K,A*2F
$GPGGA,204832.00,4030.45984,N,07612.93886,W,1,09,0.99,233.1,M,-34.4,M,,*68
$GPGSA,A,3,26,16,31,14,03,22,23,29,32,,,,1.85,0.99,1.56*00
$GPGSV,4,1,13,03,38,268,16,04,35,311,19,09,04,312,11,14,45,128,26*72
$GPGSV,4,2,13,16,55,202,18,22,33,241,21,23,29,310,20,25,00,043,*7D
$GPGSV,4,3,13,26,83,150,29,27,03,172,,29,21,056,25,31,52,058,30*79
$GPGSV,4,4,13,32,16,133,19*44
$GPGLL,4030.45984,N,07612.93886,W,204832.00,A,A*79
$GPRMC,204833.00,A,4030.45974,N,07612.93890,W,0.159,,251219,,,A*68
$GPVTG,,T,,M,0.159,N,0.295,K,A*20
$GPGGA,204833.00,4030.45974,N,07612.93890,W,1,09,0.99,233.0,M,-34.4,M,,*60
$GPGSA,A,3,26,16,31,14,03,22,23,29,32,,,,1.85,0.99,1.56*00
$GPGSV,4,1,13,03,38,268,12,04,35,311,18,09,04,312,11,14,45,128,26*77
$GPGSV,4,2,13,16,55,202,19,22,33,241,21,23,29,310,20,25,00,043,*7C
$GPGSV,4,3,13,26,83,150,29,27,03,172,,29,21,056,25,31,52,058,31*78
$GPGSV,4,4,13,32,16,133,19*44
$GPGLL,4030.45974,N,07612.93890,W,204833.00,A,A*70
$GPRMC,204834.00,A,4030.45960,N,07612.93867,W,0.486,,251219,,,A*65
$GPVTG,,T,,M,0.486,N,0.900,K,A*20
$GPGGA,204834.00,4030.45960,N,07612.93867,W,1,08,0.99,233.3,M,-34.4,M,,*68
$GPGSA,A,3,26,16,31,14,22,23,29,32,,,,,1.85,0.99,1.56*03
$GPGSV,4,1,13,03,38,268,09,04,35,311,18,09,04,312,11,14,45,128,25*7E
$GPGSV,4,2,13,16,55,202,19,22,33,241,20,23,29,310,19,25,00,043,*77
$GPGSV,4,3,13,26,83,150,29,27,03,172,,29,21,056,26,31,52,058,31*7B
$GPGSV,4,4,13,32,16,133,20*4E
$GPGLL,4030.45960,N,07612.93867,W,204834.00,A,A*7A
$GPRMC,204835.00,A,4030.45964,N,07612.93866,W,0.307,,251219,,,A*6F
$GPVTG,,T,,M,0.307,N,0.569,K,A*2D
$GPGGA,204835.00,4030.45964,N,07612.93866,W,1,08,0.99,233.7,M,-34.4,M,,*68
$GPGSA,A,3,26,16,31,14,22,23,29,32,,,,,1.85,0.99,1.56*03
$GPGSV,4,1,13,03,38,268,09,04,35,311,18,09,04,312,11,14,45,128,25*7E
$GPGSV,4,2,13,16,55,202,18,22,33,241,20,23,29,310,20,25,00,043,*7C
$GPGSV,4,3,13,26,83,150,30,27,03,172,,29,21,056,26,31,52,058,31*73
$GPGSV,4,4,13,32,16,133,20*4E
$GPGLL,4030.45964,N,07612.93866,W,204835.00,A,A*7E
$GPRMC,204836.00,A,4030.45973,N,07612.93845,W,0.475,,251219,,,A*69
$GPVTG,,T,,M,0.475,N,0.879,K,A*23
$GPGGA,204836.00,4030.45973,N,07612.93845,W,1,08,0.99,234.1,M,-34.4,M,,*6D
$GPGSA,A,3,26,16,31,14,22,23,29,32,,,,,1.85,0.99,1.56*03
$GPGSV,4,1,13,03,38,268,10,04,35,311,18,09,04,312,11,14,45,128,26*75
$GPGSV,4,2,13,16,55,202,19,22,33,241,20,23,29,310,21,25,00,043,*7C
$GPGSV,4,3,13,26,83,150,29,27,03,172,,29,21,056,25,31,52,058,31*78
$GPGSV,4,4,13,32,16,133,20*4E
$GPGLL,4030.45973,N,07612.93845,W,204836.00,A,A*7A
$GPRMC,204837.00,A,4030.45989,N,07612.93840,W,0.476,,251219,,,A*6B
$GPVTG,,T,,M,0.476,N,0.882,K,A*24
$GPGGA,204837.00,4030.45989,N,07612.93840,W,1,08,0.99,234.2,M,-34.4,M,,*6F
$GPGSA,A,3,26,16,31,14,22,23,29,32,,,,,1.85,0.99,1.56*03
$GPGSV,4,1,13,03,38,268,08,04,35,311,17,09,04,312,,14,45,128,25*70
$GPGSV,4,2,13,16,55,202,20,22,33,241,20,23,29,310,20,25,00,043,*77
$GPGSV,4,3,13,26,83,150,28,27,03,172,,29,21,056,25,31,52,058,30*78
$GPGSV,4,4,13,32,16,133,20*4E
$GPGLL,4030.45989,N,07612.93840,W,204837.00,A,A*7B
$GPRMC,204838.00,A,4030.46017,N,07612.93839,W,0.670,,251219,,,A*63
$GPVTG,,T,,M,0.670,N,1.240,K,A*25
$GPGGA,204838.00,4030.46017,N,07612.93839,W,1,08,0.99,234.3,M,-34.4,M,,*62
$GPGSA,A,3,26,16,31,14,22,23,29,32,,,,,1.85,0.99,1.56*03
$GPGSV,4,1,13,03,38,268,08,04,35,311,17,09,04,312,,14,45,128,25*70
$GPGSV,4,2,13,16,55,202,21,22,33,241,19,23,29,310,20,25,00,043,*7C
$GPGSV,4,3,13,26,83,150,29,27,03,172,19,29,21,056,25,31,52,058,30*71
$GPGSV,4,4,13,32,16,133,21*4F
$GPGLL,4030.46017,N,07612.93839,W,204838.00,A,A*77
$GPRMC,204839.00,A,4030.46004,N,07612.93850,W,0.162,,251219,,,A*6B
$GPVTG,,T,,M,0.162,N,0.301,K,A*24
$GPGGA,204839.00,4030.46004,N,07612.93850,W,1,08,0.99,234.2,M,-34.4,M,,*6F
$GPGSA,A,3,26,16,31,14,22,23,29,32,,,,,1.85,0.99,1.56*03
$GPGSV,4,1,13,03,38,268,08,04,35,311,17,09,04,312,,14,45,128,25*70
$GPGSV,4,2,13,16,55,202,21,22,33,241,19,23,29,310,19,25,00,043,*76
$GPGSV,4,3,13,26,83,150,29,27,03,172,17,29,21,056,24,31,52,058,31*7F
$GPGSV,4,4,13,32,16,133,20*4E
$GPGLL,4030.46004,N,07612.93850,W,204839.00,A,A*7B
$GPRMC,204840.00,A,4030.46021,N,07612.93836,W,0.479,,251219,,,A*6D
$GPVTG,,T,,M,0.479,N,0.888,K,A*21
$GPGGA,204840.00,4030.46021,N,07612.93836,W,1,08,0.99,234.5,M,-34.4,M,,*61
$GPGSA,A,3,26,16,31,14,22,23,29,32,,,,,1.85,0.99,1.56*03
$GPGSV,4,1,13,03,38,268,08,04,35,311,16,09,04,312,,14,44,128,24*71
$GPGSV,4,2,13,16,55,202,21,22,33,241,18,23,29,310,18,25,00,043,*76
$GPGSV,4,3,13,26,83,150,29,27,03,172,14,29,21,056,24,31,52,058,30*7D
$GPGSV,4,4,13,32,16,133,19*44
$GPGLL,4030.46021,N,07612.93836,W,204840.00,A,A*72
$GPRMC,204841.00,A,4030.46030,N,07612.93850,W,0.411,,251219,,,A*62
$GPVTG,,T,,M,0.411,N,0.761,K,A*27
$GPGGA,204841.00,4030.46030,N,07612.93850,W,1,08,0.99,234.5,M,-34.4,M,,*60
$GPGSA,A,3,26,16,31,14,22,23,29,32,,,,,1.85,0.99,1.56*03
$GPGSV,4,1,13,03,38,268,08,04,35,311,17,09,04,312,,14,44,128,24*70
$GPGSV,4,2,13,16,55,202,20,22,33,241,18,23,29,310,19,25,00,043,14*73
$GPGSV,4,3,13,26,83,150,29,27,03,172,10,29,21,056,23,31,52,058,30*7E
$GPGSV,4,4,13,32,16,133,18*45
$GPGLL,4030.46030,N,07612.93850,W,204841.00,A,A*73
$GPRMC,204842.00,A,4030.45993,N,07612.93840,W,0.231,,251219,,,A*67
$GPVTG,,T,,M,0.231,N,0.427,K,A*22
$GPGGA,204842.00,4030.45993,N,07612.93840,W,1,08,0.99,234.5,M,-34.4,M,,*61
$GPGSA,A,3,26,16,31,14,22,23,29,32,,,,,1.85,0.99,1.56*03
$GPGSV,4,1,13,03,38,268,08,04,35,311,17,09,04,312,,14,44,128,24*70
$GPGSV,4,2,13,16,56,203,19,22,33,241,19,23,29,310,19,25,00,043,12*7C
$GPGSV,4,3,13,26,83,150,29,27,03,172,11,29,21,056,23,31,52,058,30*7F
$GPGSV,4,4,13,32,16,133,19*44
$GPGLL,4030.45993,N,07612.93840,W,204842.00,A,A*72
$GPRMC,204843.00,A,4030.46010,N,07612.93856,W,0.138,,251219,,,A*6A
$GPVTG,,T,,M,0.138,N,0.256,K,A*28
$GPGGA,204843.00,4030.46010,N,07612.93856,W,1,08,0.99,235.0,M,-34.4,M,,*62
$GPGSA,A,3,26,16,31,14,22,23,29,32,,,,,1.85,0.99,1.56*03
$GPGSV,4,1,13,03,38,268,08,04,35,311,16,09,04,312,,14,44,128,24*71
$GPGSV,4,2,13,16,56,203,19,22,33,241,20,23,29,310,19,25,00,043,10*74
$GPGSV,4,3,13,26,83,150,29,27,03,172,13,29,21,056,24,31,52,058,30*7A
$GPGSV,4,4,13,32,16,133,19*44
$GPGLL,4030.46010,N,07612.93856,W,204843.00,A,A*75
$GPRMC,204844.00,A,4030.46023,N,07612.93845,W,0.402,,251219,,,A*63
$GPVTG,,T,,M,0.402,N,0.744,K,A*22
$GPGGA,204844.00,4030.46023,N,07612.93845,W,1,08,0.99,235.0,M,-34.4,M,,*67
$GPGSA,A,3,26,16,31,14,22,23,29,32,,,,,1.85,0.99,1.56*03
$GPGSV,4,1,13,03,38,268,,04,35,311,15,09,04,312,,14,44,128,24*7A
$GPGSV,4,2,13,16,56,203,18,22,33,241,20,23,29,310,18,25,00,043,08*7D
$GPGSV,4,3,13,26,83,150,29,27,03,172,12,29,21,056,23,31,52,058,30*7C
$GPGSV,4,4,13,32,16,133,19*44
$GPGLL,4030.46023,N,07612.93845,W,204844.00,A,A*70
$GPRMC,204845.00,A,4030.46062,N,07612.93860,W,0.717,,251219,,,A*67
$GPVTG,,T,,M,0.717,N,1.327,K,A*25
$GPGGA,204845.00,4030.46062,N,07612.93860,W,1,08,0.99,235.2,M,-34.4,M,,*66
$GPGSA,A,3,26,16,31,14,22,23,29,32,,,,,1.85,0.99,1.56*03
$GPGSV,4,1,13,03,38,268,,04,35,311,14,09,04,312,,14,44,128,24*7B
$GPGSV,4,2,13,16,56,203,17,22,33,241,21,23,29,310,18,25,00,043,08*73
$GPGSV,4,3,13,26,83,150,29,27,03,172,10,29,21,056,22,31,52,058,30*7F
$GPGSV,4,4,13,32,16,133,19*44
$GPGLL,4030.46062,N,07612.93860,W,204845.00,A,A*73
$GPRMC,204846.00,A,4030.46099,N,07612.93845,W,0.965,,251219,,,A*6C
$GPVTG,,T,,M,0.965,N,1.787,K,A*20
$GPGGA,204846.00,4030.46099,N,07612.93845,W,1,09,0.99,235.3,M,-34.4,M,,*66
$GPGSA,A,3,26,16,31,14,03,22,23,29,32,,,,1.85,0.99,1.56*00
$GPGSV,4,1,13,03,38,268,13,04,35,311,14,09,04,312,,14,44,128,25*78
$GPGSV,4,2,13,16,56,203,15,22,33,241,22,23,29,310,17,25,00,043,08*7D
$GPGSV,4,3,13,26,83,150,29,27,03,172,09,29,21,056,21,31,52,058,31*75
$GPGSV,4,4,13,32,16,133,19*44
$GPGLL,4030.46099,N,07612.93845,W,204846.00,A,A*73
$GPRMC,204847.00,A,4030.46098,N,07612.93816,W,0.735,,251219,,,A*61
$GPVTG,,T,,M,0.735,N,1.360,K,A*26
$GPGGA,204847.00,4030.46098,N,07612.93816,W,1,09,0.99,235.3,M,-34.4,M,,*60
$GPGSA,A,3,26,16,31,14,03,22,23,29,32,,,,1.85,0.99,1.56*00
$GPGSV,4,1,13,03,38,268,13,04,35,311,15,09,04,312,,14,44,128,24*78
$GPGSV,4,2,13,16,56,203,18,22,33,241,22,23,29,310,15,25,00,043,08*72
$GPGSV,4,3,13,26,83,150,30,27,03,172,09,29,21,056,21,31,52,058,33*7F
$GPGSV,4,4,13,32,16,133,20*4E
$GPGLL,4030.46098,N,07612.93816,W,204847.00,A,A*75
$GPRMC,204848.00,A,4030.46123,N,07612.93830,W,0.541,,251219,,,A*6A
$GPVTG,,T,,M,0.541,N,1.002,K,A*20
$GPGGA,204848.00,4030.46123,N,07612.93830,W,1,09,0.99,235.3,M,-34.4,M,,*6A
$GPGSA,A,3,26,16,31,14,03,22,23,29,32,,,,1.85,0.99,1.56*00
$GPGSV,4,1,13,03,38,268,14,04,35,311,13,09,04,312,,14,44,128,24*79
$GPGSV,4,2,13,16,56,203,20,22,33,241,22,23,29,310,16,25,00,043,08*7A
$GPGSV,4,3,13,26,83,150,30,27,03,172,08,29,21,056,20,31,52,058,32*7E
$GPGSV,4,4,13,32,16,133,20*4E
$GPGLL,4030.46123,N,07612.93830,W,204848.00,A,A*7F
$GPRMC,204849.00,A,4030.46086,N,07612.93804,W,1.371,,251219,,,A*66
$GPVTG,,T,,M,1.371,N,2.540,K,A*24
$GPGGA,204849.00,4030.46086,N,07612.93804,W,1,09,0.99,235.1,M,-34.4,M,,*60
$GPGSA,A,3,26,16,31,14,03,22,23,29,32,,,,1.85,0.99,1.56*00
$GPGSV,4,1,13,03,38,268,15,04,35,311,,09,04,312,,14,44,128,24*7A
$GPGSV,4,2,13,16,56,203,20,22,33,241,22,23,29,310,17,25,00,043,08*7B
$GPGSV,4,3,13,26,83,150,30,27,03,172,,29,21,056,19,31,52,058,31*7F
$GPGSV,4,4,13,32,16,133,21*4F
$GPGLL,4030.46086,N,07612.93804,W,204849.00,A,A*77
$GPRMC,204850.00,A,4030.46114,N,07612.93837,W,0.222,,251219,,,A*62
$GPVTG,,T,,M,0.222,N,0.410,K,A*24
$GPGGA,204850.00,4030.46114,N,07612.93837,W,1,09,0.95,234.9,M,-34.4,M,,*67
$GPGSA,A,3,26,16,31,14,03,22,23,29,32,,,,1.82,0.95,1.55*08
$GPGSV,4,1,13,03,38,268,15,04,35,311,,09,04,312,19,14,44,128,24*72
$GPGSV,4,2,13,16,56,203,20,22,33,241,22,23,29,310,18,25,00,043,07*7B
$GPGSV,4,3,13,26,83,150,30,27,03,172,19,29,21,056,18,31,52,058,31*76
$GPGSV,4,4,13,32,16,133,21*4F
$GPGLL,4030.46114,N,07612.93837,W,204850.00,A,A*75
$GPRMC,204851.00,A,4030.46145,N,07612.93879,W,0.592,,251219,,,A*61
$GPVTG,,T,,M,0.592,N,1.096,K,A*23
$GPGGA,204851.00,4030.46145,N,07612.93879,W,1,09,0.95,234.7,M,-34.4,M,,*66
$GPGSA,A,3,26,16,31,14,03,22,23,29,32,,,,1.82,0.95,1.55*08
$GPGSV,4,1,13,03,38,268,15,04,35,311,,09,04,312,16,14,44,128,24*7D
$GPGSV,4,2,13,16,56,203,19,22,33,241,22,23,29,310,17,25,00,043,07*7E
$GPGSV,4,3,13,26,83,150,31,27,03,172,,29,21,056,19,31,52,058,30*7F
$GPGSV,4,4,13,32,16,133,22*4C
$GPGLL,4030.46145,N,07612.93879,W,204851.00,A,A*7A
$GPRMC,204852.00,A,4030.46161,N,07612.93893,W,0.347,,251219,,,A*6E
$GPVTG,,T,,M,0.347,N,0.643,K,A*22
$GPGGA,204852.00,4030.46161,N,07612.93893,W,1,09,0.95,234.7,M,-34.4,M,,*67
$GPGSA,A,3,26,16,31,14,03,22,23,29,32,,,,1.82,0.95,1.55*08
$GPGSV,4,1,13,03,38,268,13,04,35,311,,09,04,312,13,14,44,128,24*7E
$GPGSV,4,2,13,16,56,203,19,22,33,241,23,23,29,310,16,25,00,043,*79
$GPGSV,4,3,13,26,83,146,30,27,03,172,,29,21,056,19,31,52,058,31*78
$GPGSV,4,4,13,32,16,133,22*4C
$GPGLL,4030.46161,N,07612.93893,W,204852.00,A,A*7B
$GPRMC,204853.00,A,4030.46144,N,07612.93877,W,1.267,,251219,,,A*60
$GPVTG,,T,,M,1.267,N,2.347,K,A*23
$GPGGA,204853.00,4030.46144,N,07612.93877,W,1,09,0.95,235.2,M,-34.4,M,,*6F
$GPGSA,A,3,26,16,31,14,03,22,23,29,32,,,,1.82,0.95,1.55*08
$GPGSV,4,1,13,03,38,268,11,04,35,311,,09,04,312,10,14,44,128,23*78
$GPGSV,4,2,13,16,56,203,19,22,33,241,23,23,29,310,15,25,00,043,*7A
$GPGSV,4,3,13,26,83,146,30,27,03,172,,29,21,056,18,31,52,058,31*79
$GPGSV,4,4,13,32,16,133,23*4D
$GPGLL,4030.46144,N,07612.93877,W,204853.00,A,A*77
$GPRMC,204854.00,A,4030.46156,N,07612.93923,W,0.714,,251219,,,A*64
$GPVTG,,T,,M,0.714,N,1.323,K,A*22
$GPGGA,204854.00,4030.46156,N,07612.93923,W,1,08,1.13,235.2,M,-34.4,M,,*65
$GPGSA,A,3,26,16,31,14,03,22,29,32,,,,,1.99,1.13,1.64*0E
$GPGSV,4,1,13,03,38,268,12,04,35,311,,09,04,312,10,14,44,128,23*7B
$GPGSV,4,2,13,16,56,203,20,22,33,241,23,23,29,310,,25,00,043,*74
$GPGSV,4,3,13,26,83,146,29,27,03,172,,29,21,056,17,31,52,058,31*7E
$GPGSV,4,4,13,32,16,133,23*4D
$GPGLL,4030.46156,N,07612.93923,W,204854.00,A,A*73
$GPRMC,204855.00,A,4030.46187,N,07612.93976,W,1.008,,251219,,,A*62
$GPVTG,,T,,M,1.008,N,1.867,K,A*22
$GPGGA,204855.00,4030.46187,N,07612.93976,W,1,08,1.13,235.3,M,-34.4,M,,*69
$GPGSA,A,3,26,16,31,14,03,22,29,32,,,,,1.99,1.13,1.64*0E
$GPGSV,4,1,13,03,38,268,13,04,35,311,19,09,04,312,10,14,44,128,23*72
$GPGSV,4,2,13,16,56,203,21,22,33,241,23,23,29,310,,25,00,043,*75
$GPGSV,4,3,13,26,83,146,29,27,03,172,,29,21,056,16,31,52,058,30*7E
$GPGSV,4,4,13,32,16,133,22*4C
$GPGLL,4030.46187,N,07612.93976,W,204855.00,A,A*7E
$GPRMC,204856.00,A,4030.46187,N,07612.93960,W,0.865,,251219,,,A*64
$GPVTG,,T,,M,0.865,N,1.602,K,A*2D
$GPGGA,204856.00,4030.46187,N,07612.93960,W,1,09,1.13,235.3,M,-34.4,M,,*6C
$GPGSA,A,3,26,16,31,14,03,22,23,29,32,,,,1.99,1.13,1.63*08
$GPGSV,4,1,13,03,38,268,13,04,35,311,,09,04,312,08,14,44,128,23*73
$GPGSV,4,2,13,16,56,203,20,22,33,241,23,23,29,310,16,25,00,043,*73
$GPGSV,4,3,13,26,83,146,29,27,03,172,,29,21,056,16,31,52,058,30*7E
$GPGSV,4,4,13,32,16,133,23*4D
$GPGLL,4030.46187,N,07612.93960,W,204856.00,A,A*7A
$GPRMC,204857.00,A,4030.46199,N,07612.93942,W,1.271,,251219,,,A*64
$GPVTG,,T,,M,1.271,N,2.353,K,A*21
$GPGGA,204857.00,4030.46199,N,07612.93942,W,1,09,1.13,236.1,M,-34.4,M,,*63
$GPGSA,A,3,26,16,31,14,03,22,23,29,32,,,,1.99,1.13,1.63*08
$GPGSV,4,1,13,03,38,268,15,04,35,311,,09,04,312,07,14,44,128,22*7B
$GPGSV,4,2,13,16,56,203,19,22,33,241,24,23,29,310,13,25,00,043,*7B
$GPGSV,4,3,13,26,83,146,30,27,03,172,,29,21,056,17,31,51,059,30*75
$GPGSV,4,4,13,32,16,133,21*4F
$GPGLL,4030.46199,N,07612.93942,W,204857.00,A,A*74
$GPRMC,204858.00,A,4030.46199,N,07612.93907,W,1.504,,251219,,,A*6F
$GPVTG,,T,,M,1.504,N,2.785,K,A*2B
$GPGGA,204858.00,4030.46199,N,07612.93907,W,1,08,1.13,236.5,M,-34.4,M,,*68
$GPGSA,A,3,26,16,31,14,03,22,29,32,,,,,1.99,1.13,1.63*09
$GPGSV,4,1,13,03,38,268,16,04,35,311,,09,04,312,,14,44,128,22*7F
$GPGSV,4,2,13,16,56,203,19,22,33,241,24,23,29,310,,25,00,043,*79
$GPGSV,4,3,13,26,83,146,29,27,03,172,,29,21,056,18,31,51,059,29*7A
$GPGSV,4,4,13,32,16,134,21*48
$GPGLL,4030.46199,N,07612.93907,W,204858.00,A,A*7A
$GPRMC,204859.00,A,4030.46189,N,07612.93870,W,1.431,,251219,,,A*69
$GPVTG,,T,,M,1.431,N,2.650,K,A*25
$GPGGA,204859.00,4030.46189,N,07612.93870,W,1,08,1.13,237.0,M,-34.4,M,,*6D
$GPGSA,A,3,26,16,31,14,03,22,29,32,,,,,1.99,1.13,1.63*09
$GPGSV,4,1,13,03,38,268,16,04,35,311,,09,04,312,,14,44,128,22*7F
$GPGSV,4,2,13,16,56,203,20,22,33,241,24,23,29,310,,25,00,043,*73
$GPGSV,4,3,13,26,83,146,30,27,03,172,,29,21,056,18,31,51,059,30*7A
$GPGSV,4,4,13,32,16,134,20*49
$GPGLL,4030.46189,N,07612.93870,W,204859.00,A,A*7B
$GPRMC,204900.00,A,4030.46152,N,07612.93801,W,2.435,175.40,251219,,,A*7A
$GPVTG,175.40,T,,M,2.435,N,4.509,K,A*32
$GPGGA,204900.00,4030.46152,N,07612.93801,W,1,09,1.13,237.3,M,-34.4,M,,*62
$GPGSA,A,3,26,16,31,14,03,22,23,29,32,,,,1.98,1.13,1.63*09
$GPGSV,4,1,13,03,38,268,17,04,35,311,,09,04,312,19,14,44,128,22*76
$GPGSV,4,2,13,16,56,203,22,22,33,241,24,23,29,310,16,25,00,043,*76
$GPGSV,4,3,13,26,83,146,31,27,03,172,,29,21,056,19,31,51,059,30*7A
$GPGSV,4,4,13,32,16,134,19*43
$GPGLL,4030.46152,N,07612.93801,W,204900.00,A,A*76
$GPRMC,204901.00,A,4030.46152,N,07612.93776,W,1.415,,251219,,,A*6C
$GPVTG,,T,,M,1.415,N,2.620,K,A*24
$GPGGA,204901.00,4030.46152,N,07612.93776,W,1,09,1.13,237.5,M,-34.4,M,,*6A
$GPGSA,A,3,26,16,31,14,03,22,23,29,32,,,,1.98,1.13,1.63*09
$GPGSV,4,1,13,03,38,268,17,04,35,311,,09,04,312,,14,44,128,22*7E
$GPGSV,4,2,13,16,56,203,22,22,33,241,23,23,29,310,15,25,00,043,*72
$GPGSV,4,3,13,26,83,146,30,27,03,172,,29,21,056,19,31,51,059,30*7B
$GPGSV,4,4,13,32,16,134,18*42
$GPGLL,4030.46152,N,07612.93776,W,204901.00,A,A*78
$GPRMC,204902.00,A,4030.46138,N,07612.93742,W,1.695,,251219,,,A*6E
$GPVTG,,T,,M,1.695,N,3.140,K,A*2E
$GPGGA,204902.00,4030.46138,N,07612.93742,W,1,09,1.13,237.4,M,-34.4,M,,*63
$GPGSA,A,3,26,16,31,14,03,22,23,29,32,,,,1.98,1.13,1.63*09
$GPGSV,4,1,13,03,38,268,19,04,35,311,,09,04,312,20,14,44,128,22*72
$GPGSV,4,2,13,16,56,203,22,22,33,241,25,23,29,310,17,25,00,043,*76
$GPGSV,4,3,13,26,83,146,31,27,03,172,,29,21,056,20,31,51,059,31*71
$GPGSV,4,4,13,32,16,134,18*42
$GPGLL,4030.46138,N,07612.93742,W,204902.00,A,A*70
$GPRMC,204903.00,A,4030.46147,N,07612.93755,W,0.476,,251219,,,A*6F
$GPVTG,,T,,M,0.476,N,0.881,K,A*27
$GPGGA,204903.00,4030.46147,N,07612.93755,W,1,08,1.13,237.5,M,-34.4,M,,*6C
$GPGSA,A,3,26,16,31,14,03,22,29,32,,,,,1.98,1.13,1.63*08
$GPGSV,4,1,13,03,38,268,19,04,35,311,,09,04,312,18,14,44,128,23*78
$GPGSV,4,2,13,16,56,203,21,22,33,241,24,23,29,310,,25,00,043,*72
$GPGSV,4,3,13,26,83,146,30,27,03,172,,29,21,056,19,31,51,059,31*7A
$GPGSV,4,4,13,32,16,134,21*48
$GPGLL,4030.46147,N,07612.93755,W,204903.00,A,A*7F
$GPRMC,204904.00,A,4030.46191,N,07612.93813,W,1.160,,251219,,,A*6D
$GPVTG,,T,,M,1.160,N,2.147,K,A*25
$GPGGA,204904.00,4030.46191,N,07612.93813,W,1,09,1.13,237.3,M,-34.4,M,,*6A
$GPGSA,A,3,26,16,31,14,03,22,23,29,32,,,,1.98,1.13,1.63*09
$GPGSV,4,1,13,03,38,268,19,04,35,311,,09,04,312,15,14,44,128,24*72
$GPGSV,4,2,13,16,56,203,22,22,33,241,25,23,29,310,16,25,00,043,*77
$GPGSV,4,3,13,26,83,146,30,27,03,172,,29,21,056,18,31,51,059,32*78
$GPGSV,4,4,13,32,16,134,23*4A
$GPGLL,4030.46191,N,07612.93813,W,204904.00,A,A*7E
$GPRMC,204905.00,A,4030.46218,N,07612.93854,W,0.564,,251219,,,A*6C
$GPVTG,,T,,M,0.564,N,1.044,K,A*25
$GPGGA,204905.00,4030.46218,N,07612.93854,W,1,09,1.13,237.1,M,-34.4,M,,*68
$GPGSA,A,3,26,16,31,14,03,22,23,29,32,,,,1.98,1.13,1.63*09
$GPGSV,4,1,13,03,38,268,20,04,35,311,,09,04,312,14,14,44,128,26*7B
$GPGSV,4,2,13,16,56,203,22,22,33,241,25,23,29,310,17,25,00,043,*76
$GPGSV,4,3,13,26,83,146,29,27,03,172,,29,21,056,17,31,51,059,32*7F
$GPGSV,4,4,13,32,16,134,23*4A
$GPGLL,4030.46218,N,07612.93854,W,204905.00,A,A*7E
$GPRMC,204906.00,A,4030.46220,N,07612.93865,W,0.739,,251219,,,A*6C
$GPVTG,,T,,M,0.739,N,1.369,K,A*23
$GPGGA,204906.00,4030.46220,N,07612.93865,W,1,09,1.13,237.2,M,-34.4,M,,*61
$GPGSA,A,3,26,16,31,14,03,22,23,29,32,,,,1.98,1.13,1.63*09
$GPGSV,4,1,13,03,38,268,20,04,35,311,,09,04,312,14,14,44,128,26*7B
$GPGSV,4,2,13,16,56,203,22,22,33,241,24,23,29,310,18,25,00,043,*78
$GPGSV,4,3,13,26,83,146,29,27,03,172,,29,21,056,16,31,51,059,32*7E
$GPGSV,4,4,13,32,16,134,23*4A
$GPGLL,4030.46220,N,07612.93865,W,204906.00,A,A*74
$GPRMC,204907.00,A,4030.46235,N,07612.93886,W,0.609,,251219,,,A*66
$GPVTG,,T,,M,0.609,N,1.128,K,A*26
$GPGGA,204907.00,4030.46235,N,07612.93886,W,1,09,0.95,237.3,M,-34.4,M,,*67
$GPGSA,A,3,26,16,31,14,03,22,23,29,32,,,,1.82,0.95,1.55*08
$GPGSV,4,1,13,03,38,268,21,04,35,311,,09,04,312,,14,44,128,26*7F
$GPGSV,4,2,13,16,56,203,23,22,33,241,24,23,29,310,19,25,00,043,*78
$GPGSV,4,3,13,26,83,146,28,27,03,172,,29,21,056,17,31,51,059,32*7E
$GPGSV,4,4,13,32,16,134,24*4D
$GPGLL,4030.46235,N,07612.93886,W,204907.00,A,A*7C
$GPRMC,204908.00,A,4030.46268,N,07612.93907,W,0.233,,251219,,,A*64
$GPVTG,,T,,M,0.233,N,0.432,K,A*24
$GPGGA,204908.00,4030.46268,N,07612.93907,W,1,09,0.95,237.0,M,-34.4,M,,*6B
$GPGSA,A,3,26,16,31,14,03,22,23,29,32,,,,1.82,0.95,1.55*08
$GPGSV,4,1,13,03,38,268,20,04,35,311,,09,04,312,,14,44,128,26*7E
$GPGSV,4,2,13,16,56,203,22,22,33,241,23,23,29,310,18,25,00,043,*7F
$GPGSV,4,3,13,26,83,146,27,27,03,172,19,29,21,056,16,31,51,059,32*78
$GPGSV,4,4,13,32,16,134,23*4A
$GPGLL,4030.46268,N,07612.93907,W,204908.00,A,A*73
$GPRMC,204909.00,A,4030.46302,N,07612.93927,W,0.410,,251219,,,A*6D
$GPVTG,,T,,M,0.410,N,0.760,K,A*27
$GPGGA,204909.00,4030.46302,N,07612.93927,W,1,09,0.95,236.4,M,-34.4,M,,*60
$GPGSA,A,3,26,16,31,14,03,22,23,29,32,,,,1.82,0.95,1.55*08
$GPGSV,4,1,13,03,38,268,20,04,35,311,,09,04,312,20,14,44,128,25*7F
$GPGSV,4,2,13,16,56,203,22,22,33,241,23,23,29,310,17,25,00,043,*70
$GPGSV,4,3,13,26,83,146,27,27,03,172,17,29,21,056,18,31,51,059,33*79
$GPGSV,4,4,13,32,16,134,23*4A
$GPGLL,4030.46302,N,07612.93927,W,204909.00,A,A*7D
$GPRMC,204910.00,A,4030.46308,N,07612.93908,W,1.044,,251219,,,A*66
$GPVTG,,T,,M,1.044,N,1.934,K,A*2D
$GPGGA,204910.00,4030.46308,N,07612.93908,W,1,09,0.95,236.6,M,-34.4,M,,*6D
$GPGSA,A,3,26,16,31,14,03,22,23,29,32,,,,1.82,0.95,1.55*08
$GPGSV,4,1,13,03,38,268,21,04,35,311,,09,04,312,17,14,44,128,25*7A
$GPGSV,4,2,13,16,56,203,21,22,33,241,22,23,29,310,15,25,00,043,*70
$GPGSV,4,3,13,26,83,146,27,27,03,172,16,29,21,056,19,31,51,059,32*78
$GPGSV,4,4,13,32,16,134,23*4A
$GPGLL,4030.46308,N,07612.93908,W,204910.00,A,A*72
$GPRMC,204911.00,A,4030.46312,N,07612.93885,W,1.066,,251219,,,A*68
$GPVTG,,T,,M,1.066,N,1.974,K,A*29
$GPGGA,204911.00,4030.46312,N,07612.93885,W,1,09,0.95,236.5,M,-34.4,M,,*60
$GPGSA,A,3,26,16,31,14,03,22,23,29,32,,,,1.82,0.95,1.55*08
$GPGSV,4,1,13,03,38,268,21,04,35,311,,09,04,312,15,14,44,128,25*78
$GPGSV,4,2,13,16,56,203,21,22,33,241,22,23,29,310,15,25,00,043,*70
$GPGSV,4,3,13,26,83,146,27,27,03,172,13,29,21,056,19,31,51,059,33*7C
$GPGSV,4,4,13,32,16,134,23*4A
$GPGLL,4030.46312,N,07612.93885,W,204911.00,A,A*7C
$GPRMC,204912.00,A,4030.46324,N,07612.93892,W,0.174,,251219,,,A*6B
$GPVTG,,T,,M,0.174,N,0.322,K,A*22
$GPGGA,204912.00,4030.46324,N,07612.93892,W,1,09,0.95,236.0,M,-34.4,M,,*65
$GPGSA,A,3,26,16,31,14,03,22,23,29,32,,,,1.82,0.95,1.55*08
$GPGSV,4,1,13,03,38,268,23,04,35,311,,09,04,312,15,14,44,128,27*78
$GPGSV,4,2,13,16,56,203,23,22,33,241,24,23,29,310,17,25,00,043,*76
$GPGSV,4,3,13,26,83,146,29,27,03,172,10,29,21,056,22,31,51,059,35*7F
$GPGSV,4,4,13,32,16,134,25*4C
$GPGLL,4030.46324,N,07612.93892,W,204912.00,A,A*7C
$GPRMC,204913.00,A,4030.46314,N,07612.93889,W,0.268,,251219,,,A*6D
$GPVTG,,T,,M,0.268,N,0.495,K,A*27
$GPGGA,204913.00,4030.46314,N,07612.93889,W,1,09,0.95,236.5,M,-34.4,M,,*68
$GPGSA,A,3,26,16,31,14,03,22,23,29,32,,,,1.82,0.95,1.55*08
$GPGSV,4,1,13,03,38,268,25,04,35,311,,09,04,312,,14,44,128,28*75
$GPGSV,4,2,13,16,56,203,25,22,33,241,25,23,29,310,19,25,00,043,*7F
$GPGSV,4,3,13,26,83,146,32,27,03,172,,29,21,056,23,31,51,059,37*77
$GPGSV,4,4,13,32,16,134,26*4F
$GPGLL,4030.46314,N,07612.93889,W,204913.00,A,A*74
$GPRMC,204914.00,A,4030.46321,N,07612.93882,W,0.097,,251219,,,A*65
$GPVTG,,T,,M,0.097,N,0.180,K,A*24
$GPGGA,204914.00,4030.46321,N,07612.93882,W,1,09,1.13,236.6,M,-34.4,M,,*6E
$GPGSA,A,3,26,16,31,14,03,22,23,29,32,,,,1.98,1.13,1.63*09
$GPGSV,4,1,13,03,38,268,26,04,35,311,,09,04,312,,14,44,128,27*79
$GPGSV,4,2,13,16,56,203,26,22,33,241,25,23,29,310,18,25,00,043,*7D
$GPGSV,4,3,13,26,83,146,31,27,03,172,,29,21,056,24,31,51,059,36*72
$GPGSV,4,4,13,32,16,134,27*4E
$GPGLL,4030.46321,N,07612.93882,W,204914.00,A,A*7E
$GPRMC,204915.00,A,4030.46320,N,07612.93869,W,0.131,,251219,,,A*6D
$GPVTG,,T,,M,0.131,N,0.242,K,A*24
$GPGGA,204915.00,4030.46320,N,07612.93869,W,1,09,1.13,237.0,M,-34.4,M,,*6C
$GPGSA,A,3,26,16,31,14,03,22,23,29,32,,,,1.98,1.13,1.63*09
$GPGSV,4,1,13,03,38,268,27,04,35,311,,09,04,312,,14,44,128,27*78
$GPGSV,4,2,13,16,56,203,27,22,33,241,26,23,29,310,20,25,00,043,*74
$GPGSV,4,3,13,26,83,146,31,27,03,172,,29,21,056,26,31,51,059,37*71
$GPGSV,4,4,13,32,16,134,27*4E
$GPGLL,4030.46320,N,07612.93869,W,204915.00,A,A*7B
$GPRMC,204916.00,A,4030.46319,N,07612.93856,W,0.104,,251219,,,A*6E
$GPVTG,,T,,M,0.104,N,0.193,K,A*2D
$GPGGA,204916.00,4030.46319,N,07612.93856,W,1,09,1.13,236.9,M,-34.4,M,,*61
$GPGSA,A,3,26,16,31,14,03,22,23,29,32,,,,1.98,1.13,1.63*09
$GPGSV,4,1,13,03,38,268,26,04,35,311,,09,04,312,,14,44,128,26*78
$GPGSV,4,2,13,16,56,203,27,22,33,241,26,23,29,310,21,25,00,043,*75
$GPGSV,4,3,13,26,83,146,31,27,03,172,,29,21,056,26,31,51,059,37*71
$GPGSV,4,4,13,32,16,134,27*4E
$GPGLL,4030.46319,N,07612.93856,W,204916.00,A,A*7E
$GPRMC,204917.00,A,4030.46319,N,07612.93844,W,0.086,,251219,,,A*67
$GPVTG,,T,,M,0.086,N,0.160,K,A*2A
$GPGGA,204917.00,4030.46319,N,07612.93844,W,1,09,0.94,237.0,M,-34.4,M,,*65
$GPGSA,A,3,26,16,31,14,03,22,23,29,32,,,,1.82,0.94,1.55*09
$GPGSV,4,1,13,03,38,268,27,04,35,311,,09,04,312,,14,44,128,26*79
$GPGSV,4,2,13,16,56,203,27,22,33,241,26,23,29,310,21,25,00,043,*75
$GPGSV,4,3,13,26,83,146,31,27,03,172,,29,21,056,26,31,51,059,37*71
$GPGSV,4,4,13,32,16,134,27*4E
$GPGLL,4030.46319,N,07612.93844,W,204917.00,A,A*7C
$GPRMC,204918.00,A,4030.46313,N,07612.93816,W,0.150,,251219,,,A*6F
$GPVTG,,T,,M,0.150,N,0.278,K,A*2A
$GPGGA,204918.00,4030.46313,N,07612.93816,W,1,09,0.94,237.5,M,-34.4,M,,*62
$GPGSA,A,3,26,16,31,14,03,22,23,29,32,,,,1.81,0.94,1.55*0A
$GPGSV,4,1,13,03,38,268,27,04,35,311,,09,04,312,,14,44,128,25*7A
$GPGSV,4,2,13,16,56,203,27,22,33,241,26,23,29,310,21,25,00,043,*75
$GPGSV,4,3,13,26,83,146,31,27,03,172,,29,21,056,27,31,51,059,36*71
$GPGSV,4,4,13,32,16,134,27*4E
$GPGLL,4030.46313,N,07612.93816,W,204918.00,A,A*7E
$GPRMC,204919.00,A,4030.46304,N,07612.93788,W,0.217,,251219,,,A*60
$GPVTG,,T,,M,0.217,N,0.402,K,A*21
$GPGGA,204919.00,4030.46304,N,07612.93788,W,1,09,0.94,237.9,M,-34.4,M,,*61
$GPGSA,A,3,26,16,31,14,03,22,23,29,32,,,,1.81,0.94,1.55*0A
$GPGSV,4,1,13,03,38,268,27,04,35,311,,09,04,312,,14,44,128,24*7B
$GPGSV,4,2,13,16,56,203,27,22,33,241,25,23,29,310,21,25,00,043,*76
$GPGSV,4,3,13,26,83,146,32,27,03,172,,29,21,056,27,31,51,059,36*72
$GPGSV,4,4,13,32,16,134,27*4E
$GPGLL,4030.46304,N,07612.93788,W,204919.00,A,A*71
$GPRMC,204920.00,A,4030.46292,N,07612.93769,W,0.395,,251219,,,A*60
$GPVTG,,T,,M,0.395,N,0.732,K,A*2A
$GPGGA,204920.00,4030.46292,N,07612.93769,W,1,09,0.94,238.0,M,-34.4,M,,*6C
$GPGSA,A,3,26,16,31,14,03,22,23,29,32,,,,1.81,0.94,1.55*0A
$GPGSV,4,1,13,03,38,268,26,04,35,311,,09,04,312,,14,44,128,23*7D
$GPGSV,4,2,13,16,56,203,25,22,33,241,25,23,29,310,21,25,00,043,*74
$GPGSV,4,3,13,26,83,146,31,27,03,172,19,29,21,056,27,31,51,059,36*79
$GPGSV,4,4,13,32,16,134,26*4F
$GPGLL,4030.46292,N,07612.93769,W,204920.00,A,A*7A
$GPRMC,204921.00,A,4030.46275,N,07612.93733,W,0.594,,251219,,,A*60
$GPVTG,,T,,M,0.594,N,1.100,K,A*2B
$GPGGA,204921.00,4030.46275,N,07612.93733,W,1,09,0.94,238.3,M,-34.4,M,,*68
$GPGSA,A,3,26,16,31,14,03,22,23,29,32,,,,1.81,0.94,1.55*0A
$GPGSV,4,1,13,03,38,268,26,04,35,311,,09,04,312,,14,44,128,22*7C
$GPGSV,4,2,13,16,56,203,25,22,33,241,24,23,29,310,20,25,00,043,*74
$GPGSV,4,3,13,26,83,146,30,27,03,172,,29,21,056,26,31,51,059,35*72
$GPGSV,4,4,13,32,16,134,25*4C
$GPGLL,4030.46275,N,07612.93733,W,204921.00,A,A*7D
$GPRMC,204922.00,A,4030.46263,N,07612.93710,W,0.191,,251219,,,A*64
$GPVTG,,T,,M,0.191,N,0.354,K,A*28
$GPGGA,204922.00,4030.46263,N,07612.93710,W,1,09,0.94,238.5,M,-34.4,M,,*6B
$GPGSA,A,3,26,16,31,14,03,22,23,29,32,,,,1.81,0.94,1.55*0A
$GPGSV,4,1,13,03,38,268,25,04,35,311,23,09,04,312,,14,44,128,23*7F
$GPGSV,4,2,13,16,56,203,25,22,33,241,23,23,29,310,20,25,00,043,*73
$GPGSV,4,3,13,26,83,146,30,27,03,172,,29,21,056,26,31,51,059,35*72
$GPGSV,4,4,13,32,16,134,25*4C
$GPGLL,4030.46263,N,07612.93710,W,204922.00,A,A*78
$GPRMC,204923.00,A,4030.46254,N,07612.93693,W,0.044,,251219,,,A*62
$GPVTG,,T,,M,0.044,N,0.082,K,A*29
$GPGGA,204923.00,4030.46254,N,07612.93693,W,1,09,0.94,238.8,M,-34.4,M,,*69
$GPGSA,A,3,26,16,31,14,03,22,23,29,32,,,,1.81,0.94,1.55*0A
$GPGSV,4,1,13,03,38,268,25,04,35,311,22,09,04,312,,14,44,128,23*7E
$GPGSV,4,2,13,16,56,203,24,22,33,241,23,23,29,310,21,25,00,043,*73
$GPGSV,4,3,13,26,83,146,30,27,03,172,,29,21,056,27,31,51,059,36*70
$GPGSV,4,4,13,32,16,134,25*4C
$GPGLL,4030.46254,N,07612.93693,W,204923.00,A,A*77
$GPRMC,204924.00,A,4030.46246,N,07612.93680,W,0.054,,251219,,,A*65
$GPVTG,,T,,M,0.054,N,0.099,K,A*22
$GPGGA,204924.00,4030.46246,N,07612.93680,W,1,09,0.94,238.7,M,-34.4,M,,*60
$GPGSA,A,3,26,16,31,14,03,22,23,29,32,,,,1.81,0.94,1.55*0A
$GPGSV,4,1,13,03,38,268,25,04,35,311,23,09,04,312,,14,44,128,24*78
$GPGSV,4,2,13,16,56,203,24,22,33,241,22,23,29,310,21,25,00,043,*72
$GPGSV,4,3,13,26,83,146,31,27,03,172,,29,21,056,28,31,51,059,36*7E
$GPGSV,4,4,13,32,16,134,25*4C
$GPGLL,4030.46246,N,07612.93680,W,204924.00,A,A*71
$GPRMC,204925.00,A,4030.46230,N,07612.93655,W,0.141,,251219,,,A*68
$GPVTG,,T,,M,0.141,N,0.261,K,A*22
$GPGGA,204925.00,4030.46230,N,07612.93655,W,1,09,0.94,239.0,M,-34.4,M,,*6E
$GPGSA,A,3,26,16,31,14,03,22,23,29,32,,,,1.81,0.94,1.55*0A
$GPGSV,4,1,13,03,38,268,25,04,35,311,23,09,04,312,,14,44,128,23*7F
$GPGSV,4,2,13,16,56,203,25,22,33,241,22,23,29,310,22,25,00,043,*70
$GPGSV,4,3,13,26,83,146,32,27,03,172,,29,21,056,29,31,51,059,36*7C
$GPGSV,4,4,13,32,16,134,25*4C
$GPGLL,4030.46230,N,07612.93655,W,204925.00,A,A*79
$GPRMC,204926.00,A,4030.46215,N,07612.93629,W,0.131,,251219,,,A*60
$GPVTG,,T,,M,0.131,N,0.243,K,A*25
$GPGGA,204926.00,4030.46215,N,07612.93629,W,1,09,0.94,239.4,M,-34.4,M,,*65
$GPGSA,A,3,26,16,31,14,03,22,23,29,32,,,,1.81,0.94,1.55*0A
$GPGSV,4,1,13,03,38,268,25,04,35,311,24,09,04,312,,14,44,128,24*7F
$GPGSV,4,2,13,16,56,203,24,22,33,241,21,23,29,310,23,25,00,043,*73
$GPGSV,4,3,13,26,83,146,32,27,03,172,,29,21,056,29,31,51,059,36*7C
$GPGSV,4,4,13,32,16,134,25*4C
$GPGLL,4030.46215,N,07612.93629,W,204926.00,A,A*76
$GPRMC,204927.00,A,4030.46204,N,07612.93620,W,0.528,,251219,,,A*64
$GPVTG,,T,,M,0.528,N,0.977,K,A*25
$GPGGA,204927.00,4030.46204,N,07612.93620,W,1,09,0.94,239.7,M,-34.4,M,,*6E
$GPGSA,A,3,26,16,31,14,03,22,23,29,32,,,,1.81,0.94,1.55*0A
$GPGSV,4,1,13,03,38,268,24,04,35,311,25,09,04,312,,14,44,128,25*7E
$GPGSV,4,2,13,16,56,203,24,22,33,241,19,23,29,310,23,25,00,043,*78
$GPGSV,4,3,13,26,83,146,32,27,03,172,,29,21,056,29,31,51,059,38*72
$GPGSV,4,4,13,32,16,134,24*4D
$GPGLL,4030.46204,N,07612.93620,W,204927.00,A,A*7E
$GPRMC,204928.00,A,4030.46182,N,07612.93607,W,0.178,,251219,,,A*62
$GPVTG,,T,,M,0.178,N,0.329,K,A*25
$GPGGA,204928.00,4030.46182,N,07612.93607,W,1,09,0.94,239.8,M,-34.4,M,,*66
$GPGSA,A,3,26,16,31,14,03,22,23,29,32,,,,1.81,0.94,1.55*0A
$GPGSV,4,1,13,03,38,268,24,04,35,311,25,09,04,312,,14,44,128,26*7D
$GPGSV,4,2,13,16,56,203,24,22,33,241,18,23,29,310,23,25,00,043,*79
$GPGSV,4,3,13,26,83,146,31,27,03,172,,29,21,056,29,31,51,059,37*7E
$GPGSV,4,4,13,32,16,134,24*4D
$GPGLL,4030.46182,N,07612.93607,W,204928.00,A,A*79
$GPRMC,204929.00,A,4030.46155,N,07612.93593,W,0.258,,251219,,,A*66
$GPVTG,,T,,M,0.258,N,0.477,K,A*28
$GPGGA,204929.00,4030.46155,N,07612.93593,W,1,09,0.94,239.9,M,-34.4,M,,*62
$GPGSA,A,3,26,16,31,14,03,22,23,29,32,,,,1.81,0.94,1.55*0A
$GPGSV,4,1,13,03,38,268,23,04,35,311,25,09,04,312,,14,44,128,26*7A
$GPGSV,4,2,13,16,56,203,23,22,33,241,19,23,29,310,23,25,00,043,*7F
$GPGSV,4,3,13,26,83,146,32,27,03,172,,29,21,056,30,31,51,059,36*74
$GPGSV,4,4,13,32,16,134,23*4A
$GPGLL,4030.46155,N,07612.93593,W,204929.00,A,A*7C
$GPRMC,204930.00,A,4030.46137,N,07612.93581,W,0.096,,251219,,,A*69
$GPVTG,,T,,M,0.096,N,0.178,K,A*22
$GPGGA,204930.00,4030.46137,N,07612.93581,W,1,09,0.94,240.3,M,-34.4,M,,*69
$GPGSA,A,3,26,16,31,14,03,22,23,29,32,,,,1.81,0.94,1.55*0A
$GPGSV,4,1,13,03,38,268,23,04,35,311,25,09,04,312,,14,44,128,25*79
$GPGSV,4,2,13,16,56,203,22,22,33,241,19,23,29,310,23,25,00,043,11*7E
$GPGSV,4,3,13,26,83,146,32,27,03,172,,29,21,056,29,31,51,059,36*7C
$GPGSV,4,4,13,32,16,134,22*4B
$GPGLL,4030.46137,N,07612.93581,W,204930.00,A,A*73
$GPRMC,204931.00,A,4030.46127,N,07612.93583,W,0.497,,251219,,,A*6E
$GPVTG,,T,,M,0.497,N,0.921,K,A*23
$GPGGA,204931.00,4030.46127,N,07612.93583,W,1,09,0.94,239.8,M,-34.4,M,,*6E
$GPGSA,A,3,26,16,31,14,03,22,23,29,32,,,,1.81,0.94,1.55*0A
$GPGSV,4,1,13,03,38,268,23,04,35,311,25,09,04,312,,14,44,128,26*7A
$GPGSV,4,2,13,16,56,203,21,22,33,241,19,23,29,310,23,25,00,043,09*74
$GPGSV,4,3,13,26,83,146,32,27,03,172,,29,21,056,30,31,51,059,36*74
$GPGSV,4,4,13,32,16,134,22*4B
$GPGLL,4030.46127,N,07612.93583,W,204931.00,A,A*71
$GPRMC,204932.00,A,4030.46108,N,07612.93566,W,0.271,,251219,,,A*65
$GPVTG,,T,,M,0.271,N,0.501,K,A*23
$GPGGA,204932.00,4030.46108,N,07612.93566,W,1,09,0.94,240.1,M,-34.4,M,,*6C
$GPGSA,A,3,26,16,31,14,03,22,23,29,32,,,,1.81,0.94,1.55*0A
$GPGSV,4,1,13,03,38,268,23,04,35,311,25,09,04,312,,14,44,128,26*7A
$GPGSV,4,2,13,16,56,203,20,22,33,241,20,23,29,310,23,25,00,043,08*7E
$GPGSV,4,3,13,26,83,146,33,27,03,172,,29,21,056,30,31,51,059,36*75
$GPGSV,4,4,13,32,16,134,21*48
$GPGLL,4030.46108,N,07612.93566,W,204932.00,A,A*74
$GPRMC,204933.00,A,4030.46108,N,07612.93554,W,0.339,,251219,,,A*68
$GPVTG,,T,,M,0.339,N,0.627,K,A*29
$GPGGA,204933.00,4030.46108,N,07612.93554,W,1,09,0.94,240.1,M,-34.4,M,,*6C
$GPGSA,A,3,26,16,31,14,03,22,23,29,32,,,,1.81,0.94,1.55*0A
$GPGSV,4,1,13,03,38,268,22,04,35,311,25,09,04,312,,14,44,128,26*7B
$GPGSV,4,2,13,16,56,203,19,22,33,241,19,23,29,310,22,25,00,043,08*7F
$GPGSV,4,3,13,26,83,146,32,27,03,172,,29,21,056,30,31,51,059,35*77
$GPGSV,4,4,13,32,16,134,21*48
$GPGLL,4030.46108,N,07612.93554,W,204933.00,A,A*74
$GPRMC,204934.00,A,4030.46082,N,07612.93520,W,0.826,,251219,,,A*6A
$GPVTG,,T,,M,0.826,N,1.530,K,A*28
$GPGGA,204934.00,4030.46082,N,07612.93520,W,1,09,0.94,240.1,M,-34.4,M,,*6B
$GPGSA,A,3,26,16,31,14,03,22,23,29,32,,,,1.81,0.94,1.55*0A
$GPGSV,4,1,13,03,38,268,22,04,35,311,25,09,04,312,,14,44,128,26*7B
$GPGSV,4,2,13,16,56,203,19,22,33,241,18,23,29,310,23,25,00,043,09*7E
$GPGSV,4,3,13,26,83,146,33,27,03,172,,29,21,056,30,31,51,059,36*75
$GPGSV,4,4,13,32,16,134,21*48
$GPGLL,4030.46082,N,07612.93520,W,204934.00,A,A*73
$GPRMC,204935.00,A,4030.46058,N,07612.93502,W,0.492,,251219,,,A*6F
$GPVTG,,T,,M,0.492,N,0.912,K,A*26
$GPGGA,204935.00,4030.46058,N,07612.93502,W,1,09,0.94,240.1,M,-34.4,M,,*6D
$GPGSA,A,3,26,16,31,14,03,22,23,29,32,,,,1.81,0.94,1.55*0A
$GPGSV,4,1,13,03,38,268,23,04,35,311,26,09,04,312,,14,44,128,26*79
$GPGSV,4,2,13,16,56,203,21,22,33,241,19,23,29,310,24,25,00,043,09*73
$GPGSV,4,3,13,26,83,146,33,27,03,172,,29,21,056,31,31,51,059,36*74
$GPGSV,4,4,13,32,16,134,20*49
$GPGLL,4030.46058,N,07612.93502,W,204935.00,A,A*75
$GPRMC,204936.00,A,4030.46034,N,07612.93510,W,0.272,,251219,,,A*6D
$GPVTG,,T,,M,0.272,N,0.504,K,A*25
$GPGGA,204936.00,4030.46034,N,07612.93510,W,1,09,0.94,239.8,M,-34.4,M,,*60
$GPGSA,A,3,26,16,31,14,03,22,23,29,32,,,,1.81,0.94,1.55*0A
$GPGSV,4,1,13,03,38,268,22,04,35,311,26,09,04,312,,14,44,128,27*79
$GPGSV,4,2,13,16,56,203,20,22,33,241,21,23,29,310,24,25,00,043,11*70
$GPGSV,4,3,13,26,83,146,33,27,03,172,,29,21,056,31,31,51,059,36*74
$GPGSV,4,4,13,32,16,134,20*49
$GPGLL,4030.46034,N,07612.93510,W,204936.00,A,A*7F
$GPRMC,204937.00,A,4030.46034,N,07612.93523,W,0.480,,251219,,,A*67
$GPVTG,,T,,M,0.480,N,0.890,K,A*2E
$GPGGA,204937.00,4030.46034,N,07612.93523,W,1,09,0.94,239.7,M,-34.4,M,,*6E
$GPGSA,A,3,26,16,31,14,03,22,23,29,32,,,,1.81,0.94,1.55*0A
$GPGSV,4,1,13,03,38,268,21,04,35,311,26,09,04,312,,14,44,128,26*7B
$GPGSV,4,2,13,16,56,203,19,22,33,241,20,23,29,310,24,25,00,043,11*7B
$GPGSV,4,3,13,26,83,146,32,27,03,172,,29,21,056,30,31,51,059,34*76
$GPGSV,4,4,13,32,16,134,20*49
$GPGLL,4030.46034,N,07612.93523,W,204937.00,A,A*7E
$GPRMC,204938.00,A,4030.46037,N,07612.93527,W,0.343,,251219,,,A*67
$GPVTG,,T,,M,0.343,N,0.635,K,A*27
$GPGGA,204938.00,4030.46037,N,07612.93527,W,1,09,0.94,239.8,M,-34.4,M,,*69
$GPGSA,A,3,26,16,31,14,03,22,23,29,32,,,,1.81,0.94,1.55*0A
$GPGSV,4,1,13,03,38,268,20,04,35,311,25,09,04,312,,14,44,128,25*7A
$GPGSV,4,2,13,16,56,203,17,22,33,241,20,23,29,310,23,25,00,043,09*7B
$GPGSV,4,3,13,26,83,146,32,27,03,172,,29,21,056,29,31,51,059,35*7F
$GPGSV,4,4,13,32,16,134,20*49
$GPGLL,4030.46037,N,07612.93527,W,204938.00,A,A*76
$GPRMC,204939.00,A,4030.46027,N,07612.93512,W,0.596,,251219,,,A*6F
$GPVTG,,T,,M,0.596,N,1.104,K,A*2D
$GPGGA,204939.00,4030.46027,N,07612.93512,W,1,09,0.94,240.2,M,-34.4,M,,*6B
$GPGSA,A,3,26,16,31,14,03,22,23,29,32,,,,1.81,0.94,1.55*0A
$GPGSV,4,1,13,03,38,268,18,04,35,311,25,09,04,312,,14,44,128,26*72
$GPGSV,4,2,13,16,56,203,17,22,33,241,21,23,29,310,23,25,00,043,08*7B
$GPGSV,4,3,13,26,83,146,32,27,03,172,,29,21,056,30,31,51,059,35*77
$GPGSV,4,4,13,32,16,134,21*48
$GPGLL,4030.46027,N,07612.93512,W,204939.00,A,A*70
$GPRMC,204940.00,A,4030.46028,N,07612.93520,W,0.334,,251219,,,A*61
$GPVTG,,T,,M,0.334,N,0.619,K,A*29
$GPGGA,204940.00,4030.46028,N,07612.93520,W,1,09,0.94,240.3,M,-34.4,M,,*6A
$GPGSA,A,3,26,16,31,14,03,22,23,29,32,,,,1.81,0.94,1.55*0A
$GPGSV,4,1,13,03,38,267,17,04,35,311,25,09,04,312,,14,44,128,25*71
$GPGSV,4,2,13,16,56,203,17,22,33,241,20,23,29,310,22,25,00,043,08*7B
$GPGSV,4,3,13,26,83,146,32,27,03,172,,29,21,056,30,31,51,059,35*77
$GPGSV,4,4,13,32,16,134,20*49
$GPGLL,4030.46028,N,07612.93520,W,204940.00,A,A*70
$GPRMC,204941.00,A,4030.46018,N,07612.93509,W,0.163,,251219,,,A*68
$GPVTG,,T,,M,0.163,N,0.301,K,A*25
$GPGGA,204941.00,4030.46018,N,07612.93509,W,1,09,0.94,240.6,M,-34.4,M,,*66
$GPGSA,A,3,26,16,31,14,03,22,23,29,32,,,,1.81,0.94,1.55*0A
$GPGSV,4,1,13,03,38,267,17,04,36,311,26,09,04,312,,14,44,128,27*73
$GPGSV,4,2,13,16,56,203,21,22,33,241,22,23,29,310,24,25,00,043,08*7A
$GPGSV,4,3,13,26,83,146,34,27,03,172,,29,21,056,31,31,51,059,36*73
$GPGSV,4,4,13,32,16,134,22*4B
$GPGLL,4030.46018,N,07612.93509,W,204941.00,A,A*79
$GPRMC,204942.00,A,4030.46014,N,07612.93500,W,0.164,,251219,,,A*69
$GPVTG,,T,,M,0.164,N,0.304,K,A*27
$GPGGA,204942.00,4030.46014,N,07612.93500,W,1,09,0.94,240.9,M,-34.4,M,,*6F
$GPGSA,A,3,26,16,31,14,03,22,23,29,32,,,,1.81,0.94,1.55*0A
$GPGSV,4,1,13,03,38,267,17,04,36,311,25,09,04,312,,14,44,128,26*71
$GPGSV,4,2,13,16,56,203,21,22,33,241,22,23,29,310,24,25,00,043,08*7A
$GPGSV,4,3,13,26,83,146,33,27,03,172,,29,21,056,30,31,51,059,34*77
$GPGSV,4,4,13,32,16,134,22*4B
$GPGLL,4030.46014,N,07612.93500,W,204942.00,A,A*7F
$GPRMC,204943.00,A,4030.45995,N,07612.93510,W,0.472,,251219,,,A*68
$GPVTG,,T,,M,0.472,N,0.874,K,A*29
$GPGGA,204943.00,4030.45995,N,07612.93510,W,1,09,0.94,240.6,M,-34.4,M,,*63
$GPGSA,A,3,26,16,31,14,03,22,23,29,32,,,,1.81,0.94,1.55*0A
$GPGSV,4,1,13,03,38,267,18,04,36,311,25,09,04,312,,14,44,128,26*7E
$GPGSV,4,2,13,16,56,203,21,22,33,241,22,23,29,310,24,25,00,043,08*7A
$GPGSV,4,3,13,26,83,146,33,27,03,172,,29,21,056,31,31,51,059,36*74
$GPGSV,4,4,13,32,16,134,23*4A
$GPGLL,4030.45995,N,07612.93510,W,204943.00,A,A*7C
$GPRMC,204944.00,A,4030.45975,N,07612.93508,W,0.548,,251219,,,A*60
$GPVTG,,T,,M,0.548,N,1.014,K,A*2E
$GPGGA,204944.00,4030.45975,N,07612.93508,W,1,09,0.94,240.7,M,-34.4,M,,*62
$GPGSA,A,3,26,16,31,14,03,22,23,29,32,,,,1.81,0.94,1.55*0A
$GPGSV,4,1,13,03,38,267,18,04,36,311,25,09,04,312,,14,44,128,26*7E
$GPGSV,4,2,13,16,56,203,22,22,33,241,22,23,29,310,24,25,00,043,07*76
$GPGSV,4,3,13,26,83,146,33,27,03,172,,29,21,056,31,31,51,059,36*74
$GPGSV,4,4,13,32,16,134,22*4B
$GPGLL,4030.45975,N,07612.93508,W,204944.00,A,A*7C
$GPRMC,204945.00,A,4030.45962,N,07612.93498,W,0.548,,251219,,,A*6F
$GPVTG,,T,,M,0.548,N,1.016,K,A*2C
$GPGGA,204945.00,4030.45962,N,07612.93498,W,1,09,0.94,241.0,M,-34.4,M,,*6B
$GPGSA,A,3,26,16,31,14,03,22,23,29,32,,,,1.81,0.94,1.55*0A
$GPGSV,4,1,13,03,38,267,19,04,36,311,25,09,04,312,,14,44,128,27*7E
$GPGSV,4,2,13,16,56,203,21,22,33,241,21,23,29,310,24,25,00,043,07*76
$GPGSV,4,3,13,26,83,146,33,27,03,172,,29,21,056,31,31,51,059,36*74
$GPGSV,4,4,13,32,16,134,22*4B
$GPGLL,4030.45962,N,07612.93498,W,204945.00,A,A*73
$GPRMC,204946.00,A,4030.45962,N,07612.93511,W,0.539,,251219,,,A*6A
$GPVTG,,T,,M,0.539,N,0.999,K,A*25
$GPGGA,204946.00,4030.45962,N,07612.93511,W,1,09,0.94,241.0,M,-34.4,M,,*68
$GPGSA,A,3,26,16,31,14,03,22,23,29,32,,,,1.81,0.94,1.55*0A
$GPGSV,4,1,13,03,38,267,20,04,36,311,25,09,05,312,,14,44,128,27*75
$GPGSV,4,2,13,16,56,203,22,22,33,241,20,23,29,310,23,25,00,043,07*73
$GPGSV,4,3,13,26,83,146,33,27,03,172,,29,21,056,31,31,51,059,36*74
$GPGSV,4,4,13,32,16,134,23*4A
$GPGLL,4030.45962,N,07612.93511,W,204946.00,A,A*70
$GPRMC,204947.00,A,4030.45962,N,07612.93541,W,0.717,,251219,,,A*60
$GPVTG,,T,,M,0.717,N,1.329,K,A*2B
$GPGGA,204947.00,4030.45962,N,07612.93541,W,1,09,0.94,240.7,M,-34.4,M,,*6A
$GPGSA,A,3,26,16,31,14,03,22,23,29,32,,,,1.81,0.94,1.54*0B
$GPGSV,4,1,13,03,38,267,21,04,36,311,24,09,05,312,,14,44,128,27*75
$GPGSV,4,2,13,16,56,203,22,22,33,241,20,23,29,310,22,25,00,043,07*72
$GPGSV,4,3,13,26,83,146,33,27,03,172,,29,21,056,31,31,51,059,37*75
$GPGSV,4,4,13,32,16,134,23*4A
$GPGLL,4030.45962,N,07612.93541,W,204947.00,A,A*74
$GPRMC,204948.00,A,4030.45971,N,07612.93570,W,0.795,,251219,,,A*65
$GPVTG,,T,,M,0.795,N,1.473,K,A*29
$GPGGA,204948.00,4030.45971,N,07612.93570,W,1,09,0.94,240.5,M,-34.4,M,,*67
$GPGSA,A,3,26,16,31,14,03,22,23,29,32,,,,1.81,0.94,1.54*0B
$GPGSV,4,1,13,03,38,267,21,04,36,311,24,09,05,312,,14,44,128,28*7A
$GPGSV,4,2,13,16,56,203,22,22,33,241,21,23,29,310,22,25,00,043,07*73
$GPGSV,4,3,13,26,83,146,34,27,03,172,,29,21,056,32,31,51,059,35*73
$GPGSV,4,4,13,32,16,134,24*4D
$GPGLL,4030.45971,N,07612.93570,W,204948.00,A,A*7B
$GPRMC,204949.00,A,4030.45972,N,07612.93593,W,0.355,,251219,,,A*62
$GPVTG,,T,,M,0.355,N,0.657,K,A*24
$GPGGA,204949.00,4030.45972,N,07612.93593,W,1,09,0.94,240.4,M,-34.4,M,,*69
$GPGSA,A,3,26,16,31,14,03,22,23,29,32,,,,1.81,0.94,1.54*0B
$GPGSV,4,1,13,03,38,267,22,04,36,311,25,09,05,312,,14,44,128,28*78
$GPGSV,4,2,13,16,56,203,23,22,33,241,21,23,29,310,22,25,00,043,07*72
$GPGSV,4,3,13,26,83,146,37,27,03,172,,29,21,056,32,31,51,059,38*7D
$GPGSV,4,4,13,32,16,134,25*4C
$GPGLL,4030.45972,N,07612.93593,W,204949.00,A,A*74
$GPRMC,204950.00,A,4030.45975,N,07612.93612,W,0.435,,251219,,,A*66
$GPVTG,,T,,M,0.435,N,0.806,K,A*2F
$GPGGA,204950.00,4030.45975,N,07612.93612,W,1,09,0.94,240.1,M,-34.4,M,,*69
$GPGSA,A,3,26,16,31,14,03,22,23,29,32,,,,1.81,0.94,1.54*0B
$GPGSV,4,1,13,03,38,267,21,04,36,311,23,09,05,312,,14,44,128,27*72
$GPGSV,4,2,13,16,56,203,22,22,33,241,20,23,29,310,21,25,00,043,07*71
$GPGSV,4,3,13,26,83,146,33,27,03,172,,29,21,056,31,31,51,059,35*77
$GPGSV,4,4,13,32,16,134,24*4D
$GPGLL,4030.45975,N,07612.93612,W,204950.00,A,A*71
$GPRMC,204951.00,A,4030.45979,N,07612.93627,W,0.491,,251219,,,A*63
$GPVTG,,T,,M,0.491,N,0.909,K,A*2F
$GPGGA,204951.00,4030.45979,N,07612.93627,W,1,09,0.94,239.9,M,-34.4,M,,*64
$GPGSA,A,3,26,16,31,14,03,22,23,29,32,,,,1.81,0.94,1.54*0B
$GPGSV,4,1,13,03,38,267,21,04,36,311,25,09,05,312,,14,44,129,28*7A
$GPGSV,4,2,13,16,56,203,22,22,33,241,20,23,29,310,22,25,00,043,07*72
$GPGSV,4,3,13,26,83,146,33,27,03,172,,29,21,056,31,31,51,059,35*77
$GPGSV,4,4,13,32,16,134,24*4D
$GPGLL,4030.45979,N,07612.93627,W,204951.00,A,A*7A
$GPRMC,204952.00,A,4030.45989,N,07612.93660,W,0.853,,251219,,,A*6E
$GPVTG,,T,,M,0.853,N,1.580,K,A*21
$GPGGA,204952.00,4030.45989,N,07612.93660,W,1,09,0.94,239.4,M,-34.4,M,,*66
$GPGSA,A,3,26,16,31,14,03,22,23,29,32,,,,1.81,0.94,1.54*0B
$GPGSV,4,1,13,03,38,267,21,04,36,311,25,09,05,312,,14,44,129,28*7A
$GPGSV,4,2,13,16,56,203,22,22,33,241,20,23,29,310,22,25,00,043,*75
$GPGSV,4,3,13,26,83,146,35,27,03,172,,29,21,056,31,31,51,059,36*72
$GPGSV,4,4,13,32,16,134,24*4D
$GPGLL,4030.45989,N,07612.93660,W,204952.00,A,A*75
$GPRMC,204953.00,A,4030.46003,N,07612.93681,W,0.543,,251219,,,A*64
$GPVTG,,T,,M,0.543,N,1.005,K,A*25
$GPGGA,204953.00,4030.46003,N,07612.93681,W,1,09,0.94,239.4,M,-34.4,M,,*60
$GPGSA,A,3,26,16,31,14,03,22,23,29,32,,,,1.81,0.94,1.54*0B
$GPGSV,4,1,13,03,38,267,20,04,36,311,25,09,05,312,,14,44,129,28*7B
$GPGSV,4,2,13,16,56,203,23,22,33,241,21,23,29,310,22,25,00,043,*75
$GPGSV,4,3,13,26,83,146,35,27,03,172,,29,21,056,32,31,51,059,38*7F
$GPGSV,4,4,13,32,16,134,24*4D
$GPGLL,4030.46003,N,07612.93681,W,204953.00,A,A*73
$GPRMC,204954.00,A,4030.46016,N,07612.93705,W,0.478,,251219,,,A*63
$GPVTG,,T,,M,0.478,N,0.885,K,A*2D
$GPGGA,204954.00,4030.46016,N,07612.93705,W,1,09,0.94,239.2,M,-34.4,M,,*68
$GPGSA,A,3,26,16,31,14,03,22,23,29,32,,,,1.81,0.94,1.54*0B
$GPGSV,4,1,13,03,38,267,20,04,36,311,25,09,05,312,,14,44,129,28*7B
$GPGSV,4,2,13,16,56,203,22,22,33,241,21,23,29,310,22,25,00,043,*74
$GPGSV,4,3,13,26,83,146,34,27,03,172,,29,21,056,32,31,51,059,37*71
$GPGSV,4,4,13,32,16,134,24*4D
$GPGLL,4030.46016,N,07612.93705,W,204954.00,A,A*7D
$GPRMC,204955.00,A,4030.46021,N,07612.93714,W,0.202,,251219,,,A*6D
$GPVTG,,T,,M,0.202,N,0.374,K,A*23
$GPGGA,204955.00,4030.46021,N,07612.93714,W,1,09,0.94,239.1,M,-34.4,M,,*6E
$GPGSA,A,3,26,16,31,14,03,22,23,29,32,,,,1.81,0.94,1.54*0B
$GPGSV,4,1,13,03,38,267,19,04,36,311,24,09,05,312,,14,44,129,27*7F
$GPGSV,4,2,13,16,56,203,22,22,33,241,20,23,29,310,21,25,00,043,*76
$GPGSV,4,3,13,26,83,146,34,27,03,172,,29,21,056,31,31,51,059,36*73
$GPGSV,4,4,13,32,16,134,23*4A
$GPGLL,4030.46021,N,07612.93714,W,204955.00,A,A*78
$GPRMC,204956.00,A,4030.46030,N,07612.93717,W,0.296,,251219,,,A*60
$GPVTG,,T,,M,0.296,N,0.549,K,A*26
$GPGGA,204956.00,4030.46030,N,07612.93717,W,1,09,0.94,239.2,M,-34.4,M,,*6D
$GPGSA,A,3,26,16,31,14,03,22,23,29,32,,,,1.81,0.94,1.54*0B
$GPGSV,4,1,13,03,38,267,17,04,36,311,24,09,05,312,,14,44,129,27*71
$GPGSV,4,2,13,16,56,203,21,22,33,241,21,23,29,310,20,25,00,043,*75
$GPGSV,4,3,13,26,83,146,35,27,03,172,,29,21,056,31,31,51,059,36*72
$GPGSV,4,4,13,32,16,134,22*4B
$GPGLL,4030.46030,N,07612.93717,W,204956.00,A,A*78
$GPRMC,204957.00,A,4030.46037,N,07612.93736,W,0.400,,251219,,,A*6C
$GPVTG,,T,,M,0.400,N,0.741,K,A*25
$GPGGA,204957.00,4030.46037,N,07612.93736,W,1,09,0.94,238.8,M,-34.4,M,,*63
$GPGSA,A,3,26,16,31,14,03,22,23,29,32,,,,1.81,0.94,1.54*0B
$GPGSV,4,1,13,03,38,267,17,04,36,311,24,09,05,312,,14,44,129,27*71
$GPGSV,4,2,13,16,56,203,22,22,33,241,21,23,29,310,20,25,00,043,*76
$GPGSV,4,3,13,26,83,146,35,27,03,172,,29,21,056,32,31,51,059,35*72
$GPGSV,4,4,13,32,16,134,22*4B
$GPGLL,4030.46037,N,07612.93736,W,204957.00,A,A*7D
$GPRMC,204958.00,A,4030.46045,N,07612.93781,W,0.812,,251219,,,A*65
$GPVTG,,T,,M,0.812,N,1.504,K,A*28
$GPGGA,204958.00,4030.46045,N,07612.93781,W,1,09,0.94,238.2,M,-34.4,M,,*6F
$GPGSA,A,3,26,16,31,14,03,22,23,29,32,,,,1.81,0.94,1.54*0B
$GPGSV,4,1,13,03,38,267,17,04,36,311,24,09,05,312,,14,44,129,27*71
$GPGSV,4,2,13,16,56,203,21,22,33,241,21,23,29,310,21,25,00,043,*74
$GPGSV,4,3,13,26,83,146,35,27,03,172,,29,21,056,32,31,51,059,36*71
$GPGSV,4,4,13,32,16,134,22*4B
$GPGLL,4030.46045,N,07612.93781,W,204958.00,A,A*7B
$GPRMC,204959.00,A,4030.46046,N,07612.93783,W,0.197,,251219,,,A*61
$GPVTG,,T,,M,0.197,N,0.365,K,A*2C
$GPGGA,204959.00,4030.46046,N,07612.93783,W,1,09,0.94,238.0,M,-34.4,M,,*6D
$GPGSA,A,3,26,16,31,14,03,22,23,29,32,,,,1.81,0.94,1.54*0B
$GPGSV,4,1,13,03,38,267,17,04,36,311,23,09,05,312,,14,44,129,27*76
$GPGSV,4,2,13,16,56,203,21,22,33,240,20,23,29,310,20,25,00,043,*75
$GPGSV,4,3,13,26,83,146,35,27,03,172,,29,21,056,31,31,51,059,36*72
$GPGSV,4,4,13,32,16,134,20*49
$GPGLL,4030.46046,N,07612.93783,W,204959.00,A,A*7B
$GPRMC,205000.00,A,4030.46026,N,07612.93790,W,0.611,,251219,,,A*68
$GPVTG,,T,,M,0.611,N,1.131,K,A*27
$GPGGA,205000.00,4030.46026,N,07612.93790,W,1,09,0.94,237.3,M,-34.4,M,,*61
$GPGSA,A,3,26,16,31,14,03,22,23,29,32,,,,1.81,0.94,1.54*0B
$GPGSV,4,1,13,03,38,267,16,04,36,311,23,09,05,312,,14,44,129,27*77
$GPGSV,4,2,13,16,56,203,21,22,33,240,20,23,29,310,20,25,00,043,*75
$GPGSV,4,3,13,26,83,146,35,27,03,172,,29,21,056,32,31,51,059,36*71
$GPGSV,4,4,13,32,16,134,21*48
$GPGLL,4030.46026,N,07612.93790,W,205000.00,A,A*7B
$GPRMC,205001.00,A,4030.46022,N,07612.93814,W,0.592,,251219,,,A*66
$GPVTG,,T,,M,0.592,N,1.096,K,A*23
$GPGGA,205001.00,4030.46022,N,07612.93814,W,1,09,0.94,236.7,M,-34.4,M,,*62
$GPGSA,A,3,26,16,31,14,03,22,23,29,32,,,,1.81,0.94,1.54*0B
$GPGSV,4,1,13,03,38,267,14,04,36,311,23,09,05,312,,14,44,129,27*75
$GPGSV,4,2,13,16,56,203,21,22,33,240,20,23,29,310,19,25,00,043,*7F
$GPGSV,4,3,13,26,83,146,36,27,03,172,,29,21,056,31,31,51,059,36*71
$GPGSV,4,4,13,32,16,134,21*48
$GPGLL,4030.46022,N,07612.93814,W,205001.00,A,A*7D
$GPRMC,205002.00,A,4030.46030,N,07612.93835,W,0.821,,251219,,,A*60
$GPVTG,,T,,M,0.821,N,1.521,K,A*2F
$GPGGA,205002.00,4030.46030,N,07612.93835,W,1,08,0.99,236.5,M,-34.4,M,,*6F
$GPGSA,A,3,26,16,31,14,22,23,29,32,,,,,1.84,0.99,1.55*01
$GPGSV,4,1,13,03,38,267,,04,36,311,22,09,05,312,,14,44,129,27*71
$GPGSV,4,2,13,16,56,203,21,22,33,240,19,23,29,310,19,25,00,043,*75
$GPGSV,4,3,13,26,83,146,35,27,03,172,,29,21,056,31,31,51,059,38*7C
$GPGSV,4,4,13,32,16,134,21*48
$GPGLL,4030.46030,N,07612.93835,W,205002.00,A,A*7E
$GPRMC,205003.00,A,4030.46038,N,07612.93867,W,0.921,,251219,,,A*6F
$GPVTG,,T,,M,0.921,N,1.705,K,A*2A
$GPGGA,205003.00,4030.46038,N,07612.93867,W,1,08,0.99,236.1,M,-34.4,M,,*65
$GPGSA,A,3,26,16,31,14,22,23,29,32,,,,,1.84,0.99,1.55*01
$GPGSV,4,1,13,03,38,267,,04,36,311,22,09,05,312,,14,44,129,28*7E
$GPGSV,4,2,13,16,56,203,21,22,33,240,20,23,29,310,19,25,00,043,*7F
$GPGSV,4,3,13,26,84,142,35,27,03,172,20,29,21,056,32,31,51,059,36*70
$GPGSV,4,4,13,32,16,134,22*4B
$GPGLL,4030.46038,N,07612.93867,W,205003.00,A,A*70
$GPRMC,205004.00,A,4030.46020,N,07612.93847,W,0.662,,251219,,,A*6B
$GPVTG,,T,,M,0.662,N,1.227,K,A*27
$GPGGA,205004.00,4030.46020,N,07612.93847,W,1,09,0.99,236.0,M,-34.4,M,,*69
$GPGSA,A,3,26,16,31,14,03,22,23,29,32,,,,1.84,0.99,1.55*02
$GPGSV,4,1,13,03,38,267,13,04,36,311,22,09,05,312,,14,44,129,27*73
$GPGSV,4,2,13,16,56,203,21,22,33,240,19,23,29,310,19,25,00,043,*75
$GPGSV,4,3,13,26,84,142,35,27,03,172,18,29,21,056,32,31,51,059,36*7B
$GPGSV,4,4,13,32,16,134,21*48
$GPGLL,4030.46020,N,07612.93847,W,205004.00,A,A*7C
$GPRMC,205005.00,A,4030.46014,N,07612.93831,W,0.150,,251219,,,A*6A
$GPVTG,,T,,M,0.150,N,0.278,K,A*2A
$GPGGA,205005.00,4030.46014,N,07612.93831,W,1,08,0.99,236.1,M,-34.4,M,,*6E
$GPGSA,A,3,26,16,31,14,22,23,29,32,,,,,1.84,0.99,1.55*01
$GPGSV,4,1,13,03,38,267,12,04,36,311,23,09,05,312,,14,44,129,27*73
$GPGSV,4,2,13,16,56,203,21,22,33,240,19,23,29,310,18,25,00,043,*74
$GPGSV,4,3,13,26,84,142,35,27,03,172,17,29,21,056,32,31,51,059,36*74
$GPGSV,4,4,13,32,16,134,21*48
$GPGLL,4030.46014,N,07612.93831,W,205005.00,A,A*7B
$GPRMC,205006.00,A,4030.46008,N,07612.93815,W,0.327,,251219,,,A*60
$GPVTG,,T,,M,0.327,N,0.605,K,A*26
$GPGGA,205006.00,4030.46008,N,07612.93815,W,1,08,0.99,236.1,M,-34.4,M,,*66
$GPGSA,A,3,26,16,31,14,22,23,29,32,,,,,1.84,0.99,1.55*01
$GPGSV,4,1,13,03,38,267,,04,36,311,22,09,05,312,,14,44,129,27*71
$GPGSV,4,2,13,16,56,203,21,22,33,240,20,23,29,310,17,25,00,043,*71
$GPGSV,4,3,13,26,84,142,35,27,03,172,14,29,21,055,31,31,51,059,36*77
$GPGSV,4,4,13,32,16,134,21*48
$GPGLL,4030.46008,N,07612.93815,W,205006.00,A,A*73
$GPRMC,205007.00,A,4030.45998,N,07612.93818,W,0.385,,251219,,,A*67
$GPVTG,,T,,M,0.385,N,0.714,K,A*2F
$GPGGA,205007.00,4030.45998,N,07612.93818,W,1,09,0.99,235.8,M,-34.4,M,,*62
$GPGSA,A,3,26,16,31,14,03,22,23,29,32,,,,1.84,0.99,1.55*02
$GPGSV,4,1,13,03,38,267,16,04,36,311,22,09,05,312,,14,44,129,28*79
$GPGSV,4,2,13,16,56,203,21,22,33,240,20,23,29,310,17,25,00,043,*71
$GPGSV,4,3,13,26,84,142,35,27,03,172,15,29,21,055,31,31,51,059,36*76
$GPGSV,4,4,13,32,16,134,21*48
$GPGLL,4030.45998,N,07612.93818,W,205007.00,A,A*7C
$GPRMC,205008.00,A,4030.46001,N,07612.93805,W,0.510,,251219,,,A*64
$GPVTG,,T,,M,0.510,N,0.945,K,A*2F
$GPGGA,205008.00,4030.46001,N,07612.93805,W,1,09,0.99,236.0,M,-34.4,M,,*60
$GPGSA,A,3,26,16,31,14,03,22,23,29,32,,,,1.84,0.99,1.55*02
$GPGSV,4,1,13,03,38,267,16,04,36,311,23,09,05,312,,14,44,129,28*78
$GPGSV,4,2,13,16,56,203,22,22,33,240,20,23,29,310,15,25,00,043,*70
$GPGSV,4,3,13,26,84,142,35,27,03,172,14,29,21,055,30,31,51,060,35*7F
$GPGSV,4,4,13,32,16,134,21*48
$GPGLL,4030.46001,N,07612.93805,W,205008.00,A,A*75
$GPRMC,205009.00,A,4030.45998,N,07612.93841,W,0.338,,251219,,,A*63
$GPVTG,,T,,M,0.338,N,0.625,K,A*2A
$GPGGA,205009.00,4030.45998,N,07612.93841,W,1,09,0.99,235.2,M,-34.4,M,,*6A
$GPGSA,A,3,26,16,31,14,03,22,23,29,32,,,,1.84,0.99,1.55*02
$GPGSV,4,1,13,03,38,267,14,04,36,311,22,09,05,312,,14,44,129,27*74
$GPGSV,4,2,13,16,56,203,21,22,33,240,20,23,29,310,12,25,00,043,*74
$GPGSV,4,3,13,26,84,142,34,27,03,172,13,29,21,055,30,31,51,060,37*7B
$GPGSV,4,4,13,32,15,134,21*4B
$GPGLL,4030.45998,N,07612.93841,W,205009.00,A,A*7E
$GPRMC,205010.00,A,4030.46020,N,07612.93908,W,1.562,,251219,,,A*66
$GPVTG,,T,,M,1.562,N,2.894,K,A*24
$GPGGA,205010.00,4030.46020,N,07612.93908,W,1,09,0.99,234.4,M,-34.4,M,,*60
$GPGSA,A,3,26,16,31,14,03,22,23,29,32,,,,1.84,0.99,1.55*02
$GPGSV,4,1,13,03,38,267,14,04,36,311,22,09,05,312,,14,44,129,26*75
$GPGSV,4,2,13,16,56,203,21,22,33,240,19,23,29,310,13,25,00,043,*7F
$GPGSV,4,3,13,26,84,142,34,27,03,172,14,29,21,055,29,31,51,060,35*76
$GPGSV,4,4,13,32,15,134,20*4A
$GPGLL,4030.46020,N,07612.93908,W,205010.00,A,A*73
$GPRMC,205011.00,A,4030.46038,N,07612.93920,W,1.010,,251219,,,A*64
$GPVTG,,T,,M,1.010,N,1.871,K,A*2C
$GPGGA,205011.00,4030.46038,N,07612.93920,W,1,09,0.94,234.5,M,-34.4,M,,*6E
$GPGSA,A,3,26,16,31,14,03,22,23,29,32,,,,1.81,0.94,1.54*0B
$GPGSV,4,1,13,03,38,267,15,04,36,311,21,09,05,312,,14,44,129,26*77
$GPGSV,4,2,13,16,56,203,22,22,33,240,19,23,29,310,14,25,00,043,*7B
$GPGSV,4,3,13,26,84,142,34,27,03,172,13,29,21,055,29,31,51,060,35*71
$GPGSV,4,4,13,32,15,134,20*4A
$GPGLL,4030.46038,N,07612.93920,W,205011.00,A,A*71
$GPRMC,205012.00,A,4030.46059,N,07612.93960,W,1.305,,251219,,,A*63
$GPVTG,,T,,M,1.305,N,2.418,K,A*2B
$GPGGA,205012.00,4030.46059,N,07612.93960,W,1,09,0.94,234.2,M,-34.4,M,,*69
$GPGSA,A,3,26,16,31,14,03,22,23,29,32,,,,1.81,0.94,1.54*0B
$GPGSV,4,1,13,03,38,267,16,04,36,311,21,09,05,312,,14,44,129,26*74
$GPGSV,4,2,13,16,56,203,22,22,33,240,19,23,29,310,14,25,00,043,*7B
$GPGSV,4,3,13,26,84,142,34,27,03,172,14,29,21,055,29,31,51,060,35*76
$GPGSV,4,4,13,32,15,134,21*4B
$GPGLL,4030.46059,N,07612.93960,W,205012.00,A,A*71
$GPRMC,205013.00,A,4030.46051,N,07612.93972,W,0.259,,251219,,,A*60
$GPVTG,,T,,M,0.259,N,0.480,K,A*21
$GPGGA,205013.00,4030.46051,N,07612.93972,W,1,09,0.94,233.7,M,-34.4,M,,*61
$GPGSA,A,3,26,16,31,14,03,22,23,29,32,,,,1.81,0.94,1.54*0B
$GPGSV,4,1,13,03,38,267,17,04,36,311,21,09,05,312,,14,44,129,26*75
$GPGSV,4,2,13,16,56,203,23,22,33,240,20,23,29,310,13,25,00,043,*77
$GPGSV,4,3,13,26,84,142,34,27,03,172,15,29,21,055,29,31,51,060,36*74
$GPGSV,4,4,13,32,15,134,21*4B
$GPGLL,4030.46051,N,07612.93972,W,205013.00,A,A*7B
$GPRMC,205014.00,A,4030.46025,N,07612.93958,W,0.849,,251219,,,A*67
$GPVTG,,T,,M,0.849,N,1.573,K,A*26
$GPGGA,205014.00,4030.46025,N,07612.93958,W,1,09,0.94,233.3,M,-34.4,M,,*69
$GPGSA,A,3,26,16,31,14,03,22,23,29,32,,,,1.81,0.94,1.54*0B
$GPGSV,4,1,13,03,38,267,15,04,36,311,21,09,05,312,,14,44,129,26*77
$GPGSV,4,2,13,16,56,203,22,22,33,240,19,23,29,310,11,25,00,043,*7E
$GPGSV,4,3,13,26,84,142,34,27,03,172,13,29,21,055,29,31,51,060,36*72
$GPGSV,4,4,13,32,15,134,20*4A
$GPGLL,4030.46025,N,07612.93958,W,205014.00,A,A*77
$GPRMC,205015.00,A,4030.46010,N,07612.93943,W,0.741,,251219,,,A*6D
$GPVTG,,T,,M,0.741,N,1.372,K,A*26
$GPGGA,205015.00,4030.46010,N,07612.93943,W,1,08,1.12,233.2,M,-34.4,M,,*6B
$GPGSA,A,3,26,16,31,14,03,22,29,32,,,,,1.97,1.12,1.62*07
$GPGSV,4,1,13,03,38,267,15,04,36,311,21,09,05,312,,14,44,129,26*77
$GPGSV,4,2,13,16,56,203,22,22,33,240,19,23,29,310,08,25,00,043,*76
$GPGSV,4,3,13,26,84,142,34,27,03,172,11,29,21,055,29,31,51,060,36*70
$GPGSV,4,4,13,32,15,134,21*4B
$GPGLL,4030.46010,N,07612.93943,W,205015.00,A,A*7A
$GPRMC,205016.00,A,4030.46009,N,07612.93924,W,0.566,,251219,,,A*60
$GPVTG,,T,,M,0.566,N,1.048,K,A*2B
$GPGGA,205016.00,4030.46009,N,07612.93924,W,1,08,1.12,233.4,M,-34.4,M,,*67
$GPGSA,A,3,26,16,31,14,03,22,29,32,,,,,1.97,1.12,1.62*07
$GPGSV,4,1,13,03,38,267,15,04,36,311,22,09,05,312,,14,44,129,27*75
$GPGSV,4,2,13,16,56,203,22,22,33,240,19,23,29,310,09,25,00,043,*77
$GPGSV,4,3,13,26,84,142,35,27,03,172,09,29,21,055,29,31,51,060,36*78
$GPGSV,4,4,13,32,15,134,21*4B
$GPGLL,4030.46009,N,07612.93924,W,205016.00,A,A*70
$GPRMC,205017.00,A,4030.46005,N,07612.93911,W,0.652,,251219,,,A*6F
$GPVTG,,T,,M,0.652,N,1.208,K,A*29
$GPGGA,205017.00,4030.46005,N,07612.93911,W,1,07,1.32,233.3,M,-34.4,M,,*66
$GPGSA,A,3,26,16,31,14,22,29,32,,,,,,2.14,1.32,1.69*05
$GPGSV,4,1,13,03,38,267,,04,36,311,22,09,05,312,,14,44,129,27*71
$GPGSV,4,2,13,16,56,203,21,22,33,240,19,23,29,310,08,25,00,043,*75
$GPGSV,4,3,13,26,84,142,35,27,03,172,11,29,21,055,30,31,51,060,36*79
$GPGSV,4,4,13,32,15,134,21*4B
$GPGLL,4030.46005,N,07612.93911,W,205017.00,A,A*7B
$GPRMC,205018.00,A,4030.46014,N,07612.93917,W,0.203,,251219,,,A*66
$GPVTG,,T,,M,0.203,N,0.377,K,A*21
$GPGGA,205018.00,4030.46014,N,07612.93917,W,1,08,1.32,233.2,M,-34.4,M,,*61
$GPGSA,A,3,26,16,31,14,03,22,29,32,,,,,2.14,1.32,1.69*06
$GPGSV,4,1,13,03,38,267,16,04,36,311,22,09,05,312,,14,44,129,27*76
$GPGSV,4,2,13,16,56,203,21,22,33,240,19,23,29,310,08,25,00,043,*75
$GPGSV,4,3,13,26,84,142,35,27,03,172,13,29,21,055,30,31,51,060,36*7B
$GPGSV,4,4,13,32,15,134,19*40
$GPGLL,4030.46014,N,07612.93917,W,205018.00,A,A*72
$GPRMC,205019.00,A,4030.46013,N,07612.93895,W,0.395,,251219,,,A*65
$GPVTG,,T,,M,0.395,N,0.731,K,A*29
$GPGGA,205019.00,4030.46013,N,07612.93895,W,1,07,1.32,233.4,M,-34.4,M,,*65
$GPGSA,A,3,26,16,31,14,22,29,32,,,,,,2.14,1.32,1.69*05
$GPGSV,4,1,13,03,38,267,15,04,36,311,22,09,05,312,,14,44,129,27*75
$GPGSV,4,2,13,16,56,203,19,22,33,240,19,23,29,310,08,25,00,043,*7E
$GPGSV,4,3,13,26,84,142,35,27,03,172,13,29,21,055,30,31,51,060,35*78
$GPGSV,4,4,13,32,15,134,19*40
$GPGLL,4030.46013,N,07612.93895,W,205019.00,A,A*7F
$GPRMC,205020.00,A,4030.45987,N,07612.93848,W,1.539,,251219,,,A*69
$GPVTG,,T,,M,1.539,N,2.851,K,A*23
$GPGGA,205020.00,4030.45987,N,07612.93848,W,1,09,1.32,233.5,M,-34.4,M,,*67
$GPGSA,A,3,26,16,31,14,03,22,23,29,32,,,,2.14,1.32,1.69*07
$GPGSV,4,1,13,03,38,267,13,04,36,311,21,09,05,312,,14,44,129,26*71
$GPGSV,4,2,13,16,56,203,18,22,33,240,18,23,29,310,07,25,00,043,*71
$GPGSV,4,3,13,26,84,142,35,27,03,172,12,29,21,055,29,31,51,060,35*71
$GPGSV,4,4,13,32,15,134,19*40
$GPGLL,4030.45987,N,07612.93848,W,205020.00,A,A*72
$GPRMC,205021.00,A,4030.45987,N,07612.93825,W,0.655,,251219,,,A*6B
$GPVTG,,T,,M,0.655,N,1.213,K,A*24
$GPGGA,205021.00,4030.45987,N,07612.93825,W,1,09,1.32,233.8,M,-34.4,M,,*60
$GPGSA,A,3,26,16,31,14,03,22,23,29,32,,,,2.14,1.32,1.69*07
$GPGSV,4,1,13,03,38,267,15,04,36,311,21,09,05,312,,14,44,129,26*77
$GPGSV,4,2,13,16,56,203,18,22,33,240,19,23,29,310,07,25,00,043,*70
$GPGSV,4,3,13,26,84,142,35,27,03,172,14,29,21,055,29,31,51,060,32*70
$GPGSV,4,4,13,32,15,134,21*4B
$GPGLL,4030.45987,N,07612.93825,W,205021.00,A,A*78
$GPRMC,205022.00,A,4030.45993,N,07612.93827,W,0.526,,251219,,,A*68
$GPVTG,,T,,M,0.526,N,0.975,K,A*29
$GPGGA,205022.00,4030.45993,N,07612.93827,W,1,09,1.12,233.8,M,-34.4,M,,*66
$GPGSA,A,3,26,16,31,14,03,22,23,29,32,,,,1.97,1.12,1.62*06
$GPGSV,4,1,13,03,38,267,16,04,36,311,19,09,05,312,,14,44,129,26*7F
$GPGSV,4,2,13,16,56,203,21,22,33,240,18,23,29,310,07,25,00,043,*7B
$GPGSV,4,3,13,26,84,142,34,27,03,172,13,29,21,055,25,31,51,060,33*7B
$GPGSV,4,4,13,32,15,134,21*4B
$GPGLL,4030.45993,N,07612.93827,W,205022.00,A,A*7C
$GPRMC,205023.00,A,4030.45988,N,07612.93863,W,0.330,,251219,,,A*62
$GPVTG,,T,,M,0.330,N,0.611,K,A*25
$GPGGA,205023.00,4030.45988,N,07612.93863,W,1,09,1.12,232.7,M,-34.4,M,,*63
$GPGSA,A,3,26,16,31,14,03,22,23,29,32,,,,1.97,1.12,1.62*06
$GPGSV,4,1,13,03,38,267,16,04,36,311,20,09,05,312,,14,44,129,26*75
$GPGSV,4,2,13,16,56,203,20,22,33,240,16,23,29,310,07,25,00,043,*74
$GPGSV,4,3,13,26,84,142,34,27,03,172,12,29,21,055,25,31,51,060,33*7A
$GPGSV,4,4,13,32,15,134,21*4B
$GPGLL,4030.45988,N,07612.93863,W,205023.00,A,A*77
$GPRMC,205024.00,A,4030.46006,N,07612.93888,W,0.931,,251219,,,A*67
$GPVTG,,T,,M,0.931,N,1.725,K,A*29
$GPGGA,205024.00,4030.46006,N,07612.93888,W,1,09,1.12,232.7,M,-34.4,M,,*6D
$GPGSA,A,3,26,16,31,14,03,22,23,29,32,,,,1.97,1.12,1.62*06
$GPGSV,4,1,13,03,38,267,16,04,36,311,19,09,05,312,,14,44,129,27*7E
$GPGSV,4,2,13,16,56,203,19,22,33,240,15,23,29,310,07,25,00,043,*7D
$GPGSV,4,3,13,26,84,142,35,27,03,172,13,29,21,055,26,31,51,060,34*7E
$GPGSV,4,4,13,32,15,134,21*4B
